city,lat,lon,,,,
Los Angeles,34.1141,-118.4068,,,,
Chicago,41.8375,-87.6866,,,,
New York City,40.7834,-73.9662,,,,
Washington DC,38.9047,-77.0163,,,,
Miami,25.8696,-80.3045,,,,
Houston,43.7583,-91.5706,,,,
Brooklyn,40.6501,-73.9496,,,,
Atlanta,33.7628,-84.422,,,,
DMV,39.3051,-76.6144,,,,
Cleveland,41.4764,-81.6805,,,,
Bronx,40.8501,-73.8662,,,,
Tampa,27.9945,-82.4447,,,,
Tokyo,35.652832,139.839478,,,,
Baltimore,39.3051,-76.6144,,,,
Connecticut,41.1918,-73.1954,,,,
 ,,,,,,